Tract Code (id),City,Median Age,Median Household Income,Percent People in Poverty,Population Density (Persons/Acre),# of Nearby Restaurants,# of Nearby Coffee Shops,# of Nearby Mosques,lat,lon,transit_stops,pedestrian_score,county_id,income_bracket,density_bracket
1010,Belleville,0.33746898263027314,0.14543271932703594,0.14031151892129223,0.24882017844408327,0.45,0.45,0.0,42.1859085,-83.37746188,0.0,0.11393399685699318,163.0,Middle,Moderate
1015,Brownstown Twp,0.4168734491315137,0.2855016882550502,0.21672318305767843,0.10910923567827187,0.2,0.0,0.0,42.1184995,-83.47200231,0.0,0.028810895756940805,157.0,Upper-Middle,Low
1025,Dearborn,0.1389578163771713,0.16909526614183146,0.5855549711728582,0.32884637833242664,0.75,0.6000000000000001,1.0,42.4118245,-83.09530753,0.0,0.3135149292823467,157.0,Upper-Middle,Moderate
1040,Ecorse,0.23076923076923073,0.07868032856905212,0.5789380255317578,0.24874220430582794,0.1,0.0,0.0,42.1039985,-83.47037242,0.0,0.01676270298585647,163.0,Middle,Moderate
1045,Flat Rock(Wayne),0.2803970223325062,0.2054950341472626,0.2963409521336375,0.11552374240686533,1.0,0.45,0.10526315789473684,42.3218705,-83.05464879,0.0,0.3098480880041906,163.0,Upper-Middle,Low
1050,Garden City,0.3424317617866005,0.1655164351966334,0.2663147839229553,0.3436619448074312,0.8500000000000001,0.8,1.0,42.372107,-83.05508848,0.0,0.26244106862231525,163.0,Upper-Middle,Moderate
1055,Gibraltar,0.5310173697270472,0.27470674717537624,0.05038501913592471,0.09732348817720624,0.9500000000000001,0.5,0.05263157894736842,42.306662,-83.10107586,0.0,0.3027763226820324,163.0,Upper-Middle,Low
1060,Grosse Ile Twp,0.5955334987593054,0.4376964198202492,0.09170316320348122,0.08682354948986934,0.9500000000000001,1.0,0.9473684210526315,42.3958685,-83.02481607,0.0,0.33001571503404914,57.0,High,Low
1065,Grosse Pointe,0.4094292803970224,0.5143580359591582,0.048875532561257956,0.3920418999861414,1.0,0.9,0.10526315789473684,42.3364615,-83.07103609,0.0,0.894447354635935,163.0,High,Moderate
1070,Grosse Pointe Farms,0.5955334987593054,0.5980019692562236,0.054088644912480895,0.27189482119929087,0.6000000000000001,0.35000000000000003,0.3684210526315789,42.412984,-83.02796902,0.0,0.1726034573074908,161.0,High,Moderate
1075,Grosse Pointe Park,0.33498759305210923,0.42358791290312436,0.12096115564841227,0.3929680841158944,1.0,0.6000000000000001,0.10526315789473684,42.32527,-83.06140816,0.0,0.8512310110005238,151.0,High,Moderate
1085,Grosse Pointe Woods,0.40446650124069483,0.457964472459637,0.09638883631124608,0.37451567502819466,0.9,0.4,0.05263157894736842,42.2987805,-83.10334573,0.0,0.2454164484023048,145.0,High,Moderate
1090,Hamtramck,0.0,0.056294651086462935,0.927620165749199,1.0,0.9500000000000001,0.5,0.05263157894736842,42.305196,-83.10162443,0.0,0.2689889994761655,151.0,Middle,Dense
1095,Harper Woods,0.2506203473945411,0.15225317980927888,0.4751466724779736,0.4341790687315444,0.9,0.55,0.05263157894736842,42.3037565,-83.09738216,0.0,0.23991618648507068,161.0,Upper-Middle,Moderate
1100,Highland Park,0.4491315136476427,0.0,1.0,0.22193365373077573,0.15000000000000002,0.25,0.0,42.3017565,-83.10409977,0.0,0.08276584599266631,161.0,Low,Low
1105,Huron Twp,0.39205955334987597,0.2846339566314029,0.1690411320333666,0.032632458851404984,0.8,0.5,0.15789473684210525,42.297726,-83.11612888,0.0,0.22262964903090618,145.0,Upper-Middle,Low
1110,Inkster,0.18362282878411917,0.05417702624326161,0.8811267190878515,0.3062159787768966,0.75,0.55,0.05263157894736842,42.29738,-83.1124705,0.0,0.19984284965950758,163.0,Middle,Moderate
1115,Lincoln Park,0.19602977667493804,0.1330866517698578,0.532942543979407,0.5072768422510874,0.35000000000000003,0.35000000000000003,0.21052631578947367,42.295894,-83.12681422,0.0,0.2194866422210581,163.0,Middle,Moderate
1120,Livonia,0.4491315136476427,0.3090338505253598,0.1053053240757911,0.1954877620493878,0.55,0.5,0.3157894736842105,42.2918205,-83.13188373,0.0,0.180722891566265,145.0,Upper-Middle,Low
1125,Melvindale,0.11414392059553358,0.06192816261200708,0.833874136737137,0.3429826454324687,0.4,0.30000000000000004,0.3157894736842105,42.2921595,-83.13537019,0.0,0.14955474070193814,163.0,Middle,Moderate
1135,Northville Twp,0.456575682382134,0.51359820878612,0.06074884693862539,0.14016466831741306,0.75,0.6000000000000001,0.2631578947368421,42.2915755,-83.12905231,0.0,0.24279727606076476,163.0,High,Low
1140,Plymouth,0.42431761786600497,0.37838494013551005,0.06494933573504003,0.3111564754876581,0.8500000000000001,0.7000000000000001,0.3157894736842105,42.2891765,-83.13392114,0.0,0.1977475117862755,163.0,High,Moderate
1145,Plymouth Twp,0.4913151364764269,0.37095302109981615,0.08898825374741848,0.12630924659032092,0.7000000000000001,0.55,0.21052631578947367,42.2935215,-83.12531227,0.0,0.26375065479308535,163.0,High,Low
1150,Redford Twp,0.2754342431761788,0.17742189291382482,0.273628851262153,0.3232797935197236,0.8,0.55,0.15789473684210525,42.294439,-83.1139205,0.0,0.24751178627553688,163.0,Upper-Middle,Moderate
1155,River Rouge,0.23821339950372222,0.022417149614016793,0.9719618778677973,0.18740772678704454,0.75,0.5,0.05263157894736842,42.296981,-83.10973923,0.0,0.1757464641173389,163.0,Low,Low
1160,Riverview,0.3523573200992557,0.19872852589032414,0.19071853320369492,0.20723932382192184,0.7000000000000001,0.5,0.05263157894736842,42.29442,-83.11156335,0.0,0.21529596647459398,163.0,Upper-Middle,Low
1165,Rockwood,0.3771712158808934,0.2599103493856191,0.24064890252466337,0.08616854267232808,0.75,0.5,0.05263157894736842,42.29505,-83.10834549,0.0,0.19303300157150338,71.0,Upper-Middle,Low
1170,Romulus,0.2109181141439207,0.20076072637679337,0.2595459365259198,0.04954216217393505,0.45,0.2,0.15789473684210525,42.287637,-83.1269893,0.0,0.14588789942378208,163.0,Upper-Middle,Low
1175,Southgate,0.3076923076923077,0.16659098368394787,0.23018098252557406,0.3214568666741828,0.5,0.30000000000000004,0.21052631578947367,42.289667,-83.12479556,0.0,0.2079622839182818,163.0,Upper-Middle,Moderate
1180,Sumpter Twp,0.3548387096774194,0.20382701118159874,0.2830901613331353,0.016450353826235286,0.7000000000000001,0.5,0.15789473684210525,42.292307,-83.12006645,0.0,0.2585123101100052,163.0,Upper-Middle,Low
1185,Taylor,0.2803970223325062,0.14367027996708914,0.3997746293984727,0.1967164152333875,0.8,0.5,0.15789473684210525,42.292521,-83.11428851,0.0,0.23598742797276057,163.0,Middle,Low
1190,Trenton,0.5285359801488835,0.22922052522491337,0.16615054858683675,0.18377807592442102,0.65,0.5,0.15789473684210525,42.2916165,-83.11626525,0.0,0.22812991094814036,163.0,Upper-Middle,Low
1200,Van Buren Twp,0.39454094292803965,0.21592579770613124,0.26992050540227164,0.060042884305242086,0.6000000000000001,0.5,0.15789473684210525,42.291358,-83.1218387,0.0,0.24567836563645884,163.0,Upper-Middle,Low
1205,Wayne,0.3101736972704715,0.12087546477594092,0.3661776211978839,0.2155516968417608,0.0,0.0,0.0,45.072146,-84.36592414,0.0,0.0007857517024620219,119.0,Middle,Low
1215,Woodhaven,0.4590570719602979,0.25046870995733284,0.28725013546737327,0.14671837983321884,0.15000000000000002,0.05,0.0,43.6864455,-85.83781969,0.0,0.020953378732320588,123.0,Upper-Middle,Low
2010,Rochester Hills,0.3449131513647644,0.41125982942104766,0.11095948808200068,0.17127875519750413,0.25,0.05,0.0,42.67297,-83.65154406,0.0,0.0322158198009429,157.0,High,Low
2020,Beverly Hills,0.4590570719602979,0.6648622644648164,0.044040210966664675,0.19380471556360698,0.7000000000000001,0.6000000000000001,0.0,42.5744455,-83.39531244,0.0,0.17077003666841276,163.0,High,Low
2025,Bingham Farms,1.0,0.8594949172507745,0.6617886123225514,0.10008754393170091,0.45,0.0,0.0,42.7968105,-83.55970558,0.0,0.05421686746987951,163.0,High,Low
2035,Bloomfield Hills,0.5459057071960299,0.7766242991830734,0.0775869059753658,0.0633211307788002,0.8500000000000001,0.35000000000000003,0.0,42.8323815,-83.62597253,0.0,0.12807752750130955,163.0,High,Low
2040,Bloomfield Twp,0.5285359801488835,0.5832145635040172,0.11345490016346314,0.12506904923266984,1.0,0.65,0.05263157894736842,42.62858,-83.35287844,0.0,0.2333682556312205,163.0,High,Low
2045,Brandon Twp,0.39702233250620356,0.31107953906815516,0.11806740829787503,0.02735829786852166,0.8500000000000001,0.65,0.05263157894736842,42.798431,-83.25950671,0.0,0.1618648507071765,163.0,Upper-Middle,Low
2050,Clarkston,0.7468982630272955,0.30095000876723665,0.045117469963075994,0.11888755221265297,1.0,0.30000000000000004,0.05263157894736842,42.3046485,-83.54233534,0.0,0.4009952854897852,163.0,Upper-Middle,Low
2055,Clawson,0.3424317617866005,0.265480916648308,0.1217815321484728,0.38461414129342547,1.0,0.7000000000000001,0.21052631578947367,42.2959965,-83.53230113,0.0,0.4106862231534834,163.0,Upper-Middle,Moderate
2060,Commerce Twp,0.3722084367245658,0.38910794491477796,0.11665162629992333,0.10040982501643919,0.9,0.8500000000000001,0.631578947368421,42.365763,-83.04429118,0.0,0.4151388161341016,163.0,High,Low
2065,Farmington,0.3126550868486353,0.2991336171819854,0.08911894090107622,0.32300680277011634,1.0,0.8500000000000001,0.10526315789473684,42.3297585,-83.04346308,0.0,0.9999999999999999,163.0,Upper-Middle,Moderate
2072,Farmington Hills,0.3573200992555833,0.33396877065358627,0.14450377273093826,0.18603394974574372,0.05,0.0,0.0,43.3847925,-84.53809526,0.0,0.005238344683080146,57.0,High,Low
2075,Ferndale,0.2133995037220845,0.28841960444026815,0.1842557990420916,0.37013214077979245,0.1,0.0,0.0,42.170528,-83.98208096,0.0,0.012048192771084336,161.0,Upper-Middle,Moderate
2080,Franklin,0.5607940446650125,0.6698573413242574,0.04521575716879162,0.07086003243044417,1.0,0.8500000000000001,0.3684210526315789,42.353727,-83.0320485,0.0,0.8483499214248297,163.0,High,Low
2085,Groveland Twp,0.5781637717121589,0.3411668967129607,0.08564305975859653,0.00950330413718425,1.0,0.75,0.3157894736842105,42.3527105,-83.03564843,0.0,0.8441592456783655,163.0,High,Low
2090,Hazel Park,0.23573200992555843,0.15869147869561506,0.3244926557197093,0.39806978800401294,0.0,0.0,0.0,46.0908725,-88.75578937,0.0,0.0,71.0,Upper-Middle,Moderate
2105,Holly Twp,0.3722084367245658,0.3017817722406809,0.2798379871039469,0.011163012394457682,0.45,0.1,0.0,44.9778105,-85.71448764,0.0,0.13069669984284962,89.0,Upper-Middle,Low
2110,Huntington Woods,0.4168734491315137,0.7222719282075722,0.030108363442253143,0.3191700314851636,0.15000000000000002,0.0,0.0,44.171861,-85.93919293,0.0,0.05343111576741749,101.0,High,Moderate
2115,Independence Twp,0.3722084367245658,0.39157176320368314,0.11379711479543574,0.07356254927673352,0.0,0.0,0.0,44.595152,-85.07330861,0.0,0.0,79.0,High,Low
2125,Lake Angelus,0.9528535980148886,0.830801325426335,0.19353664876666088,0.009898373226669765,0.25,0.05,0.0,43.723477,-85.81347917,0.0,0.03535882661079099,123.0,High,Low
2140,Leonard,0.3052109181141439,0.2862525233905377,0.07861307123568899,0.024458833058528043,0.0,0.0,0.0,43.689122,-85.68157824,0.0,0.0023572551073860657,123.0,Upper-Middle,Low
2150,Madison Heights,0.3424317617866005,0.17599215894325576,0.26781915032403064,0.29933178852768083,0.0,0.0,0.0,43.6839885,-86.27471088,0.0,0.0007857517024620219,127.0,Upper-Middle,Moderate
2155,Milford,0.37468982630272973,0.33692715100778264,0.20150033751663954,0.1899174181542148,0.0,0.0,0.0,43.7443885,-85.56545223,0.0,0.0031430068098480873,123.0,High,Low
2172,Novi Twp,0.4838709677419356,0.5925438024629192,0.021333490450171806,0.16116423492195486,0.0,0.0,0.0,43.656986,-85.70978905,0.0,0.0007857517024620219,123.0,High,Low
2175,Oakland Twp,0.40198511166253115,0.6392574375390592,0.04849722389636953,0.03845808423413815,0.1,0.05,0.0,43.6879595,-85.76636484,0.0,0.018072289156626505,123.0,High,Low
2180,Oak Park,0.2704714640198511,0.17219751909683978,0.3386187924774056,0.4308500300281713,0.15000000000000002,0.05,0.0,43.7063135,-85.8113649,0.0,0.021739130434782605,123.0,Upper-Middle,Moderate
2190,Orion Twp,0.3722084367245658,0.3951416021113304,0.08948545549400541,0.07461460540177049,0.1,0.05,0.0,43.6724385,-85.77676792,0.0,0.01650078575170246,123.0,High,Low
2195,Ortonville,0.3846153846153847,0.3330875509736129,0.29632087398407936,0.10069607723922311,0.1,0.05,0.0,43.6585275,-85.80977319,0.0,0.01964379256155055,123.0,High,Low
2205,Oxford Twp,0.29776674937965264,0.38664862264464817,0.12751922420229375,0.03935148588128961,0.0,0.0,0.0,43.6739665,-85.64432142,0.0,0.0031430068098480873,123.0,High,Low
2220,Auburn Hills,0.22828784119106715,0.22994888026652405,0.26482281295650945,0.1095766529332982,0.0,0.0,0.0,43.6413475,-85.66136529,0.0,0.0,123.0,Upper-Middle,Low
2230,Rochester,0.3076923076923077,0.34771310004990585,0.0986023001184498,0.2521703917668782,0.0,0.0,0.0,43.634831,-85.61158868,0.0,0.0,123.0,High,Moderate
2235,Rose Twp,0.543424317617866,0.34569438761976273,0.15162095884101578,0.010036333871057103,0.0,0.0,0.0,43.6177715,-85.64832106,0.0,0.0007857517024620219,123.0,High,Low
2245,Royal Oak Twp,0.1389578163771713,0.07195878049986738,0.6717216410901559,0.3016747373780203,0.0,0.0,0.0,43.6185905,-85.59214865,0.0,0.0,123.0,Middle,Moderate
2260,Springfield Twp,0.3846153846153847,0.3599647512128011,0.1894574609571668,0.02750604173628938,0.0,0.0,0.0,43.6886685,-85.67531416,0.0,0.0023572551073860657,123.0,High,Low
2275,Walled Lake,0.3399503722084368,0.17873023437745877,0.26453520941860986,0.22675626469784013,0.1,0.0,0.0,46.193998,-86.96789569,0.0,0.03719224724986904,3.0,Upper-Middle,Low
2280,Waterford Twp,0.3870967741935486,0.21757583659669366,0.19702004080616353,0.14770142900621008,0.0,0.0,0.0,46.162468,-86.92034901,0.0,0.0007857517024620219,3.0,Upper-Middle,Low
2285,West Bloomfield Twp,0.4838709677419356,0.44771354965178334,0.13981084645300906,0.15558227712782427,0.05,0.0,0.0,46.33589,-86.46947235,0.0,0.00680984808800419,3.0,High,Low
2290,White Lake Twp,0.43672456575682383,0.29458814220008184,0.23425881788269567,0.060453670463781126,0.1,0.05,0.0,46.352759,-86.58859108,0.0,0.020429544264012573,3.0,Upper-Middle,Low
2295,Wixom,0.23076923076923073,0.18315431685242722,0.20248661402287124,0.13521507564108487,0.1,0.0,0.0,46.1931545,-86.97252072,0.0,0.027763226820324775,3.0,Upper-Middle,Low
2300,Wolverine Lake,0.4193548387096774,0.2735422783125543,0.15917886524297598,0.19914985319014955,0.1,0.0,0.0,46.1714855,-86.97059567,0.0,0.01047668936616029,3.0,Upper-Middle,Low
3005,Armada,0.3473945409429281,0.372104001906312,0.13643193688199523,0.18867153958440996,1.0,0.4,0.0,42.666965,-82.76867109,0.0,0.17810371922472498,163.0,High,Low
3010,Armada Twp,0.446650124069479,0.37193764921162314,0.17958399163932107,0.0044113754086467834,0.25,0.0,0.0,42.842363,-82.9458392,0.0,0.02619172341540073,157.0,High,Low
3015,Bruce Twp,0.4218362282878413,0.40552740548244537,0.0686166932062331,0.013374900943124969,1.0,0.25,0.0,42.7783355,-83.02650117,0.0,0.1584599266631744,163.0,High,Low
3025,Chesterfield Twp,0.36724565756823824,0.28682801379378564,0.19034282635280794,0.12053673320413395,0.30000000000000004,0.05,0.0,42.816605,-82.94736705,0.0,0.0500261917234154,163.0,Upper-Middle,Low
3035,Eastpointe,0.23325062034739452,0.13764111878931207,0.435365503395463,0.4977320943866017,0.30000000000000004,0.0,0.0,42.8110415,-82.93160622,0.0,0.03300157150340492,163.0,Middle,Moderate
3040,Fraser,0.36228287841191087,0.15077848565095608,0.24382960786868274,0.26226226425862453,1.0,0.2,0.0,42.8151395,-82.96764171,0.0,0.13436354112100574,163.0,Upper-Middle,Moderate
3050,Harrison Twp,0.4491315136476427,0.22570463854257056,0.2873150556357915,0.11880395263283156,1.0,0.15000000000000002,0.0,42.827462,-82.9693135,0.0,0.12441068622315347,161.0,Upper-Middle,Low
3055,Lenox Twp,0.29776674937965264,0.20599858825010453,0.17726675472612516,0.009676962255176676,0.45,0.05,0.0,42.809636,-82.88259743,0.0,0.05866946045049764,145.0,Upper-Middle,Low
3060,Macomb Twp,0.33746898263027314,0.4080496720154304,0.08734098884866937,0.18768127963657513,0.7000000000000001,0.2,0.0,43.179732,-84.11870404,0.0,0.14222105814562597,145.0,High,Low
3085,Ray Twp,0.5334987593052111,0.3809431748186981,0.17159595629209715,0.004924843331236304,0.1,0.0,0.0,43.177665,-82.86984888,0.0,0.01047668936616029,151.0,High,Low
3090,Richmond(Macomb),0.2803970223325062,0.15346260885985463,0.563434782986695,0.15827044016999747,0.35000000000000003,0.1,0.0,42.1060615,-84.00457652,0.0,0.05500261917234153,161.0,Upper-Middle,Low
3110,Shelby Twp,0.4590570719602979,0.27876215611076394,0.1579290667056068,0.16797949663595127,0.05,0.0,0.0,43.5950015,-86.19329861,0.0,0.01545311681508643,127.0,Upper-Middle,Low
3120,St.Clair Shores,0.41439205955335,0.20281990297591485,0.17904717359275038,0.3734245915150337,0.75,0.1,0.0,43.2935605,-84.58253381,0.0,0.16291251964379252,57.0,Upper-Middle,Moderate
3125,Utica,0.4416873449131514,0.12562775662151165,0.1602640622266331,0.21673525388025588,0.0,0.0,0.0,43.298946,-84.51825808,0.0,0.0,57.0,Middle,Low
3130,Warren,0.2704714640198511,0.1625715428987632,0.30378997016509707,0.30032725440637525,0.0,0.0,0.0,45.081241,-84.15568667,0.0,0.01257202723939235,119.0,Upper-Middle,Moderate
3135,Washington Twp,0.4218362282878413,0.3299358418120754,0.1502572818502546,0.05267244179394707,0.0,0.0,0.0,45.08161,-84.16275019,0.0,0.01257202723939235,119.0,High,Low
4005,Ann Arbor,0.017369727047146455,0.24056847661395836,0.5530846122529602,0.3117447513242805,0.05,0.0,0.0,42.343569,-83.60184408,0.0,0.06574122577265584,163.0,Upper-Middle,Moderate
4010,Ann Arbor Twp,0.4962779156327545,0.5052221258075974,0.13822534763683691,0.017383965584259854,0.9500000000000001,0.15000000000000002,0.0,42.3341235,-84.05280134,0.0,0.1364588789942378,163.0,High,Low
4015,Augusta Twp,0.39950372208436746,0.3591239957018061,0.07355038055187037,0.011557895485411734,0.25,0.0,0.0,42.347853,-83.98015962,0.0,0.031691985332634884,163.0,High,Low
4018,Barton Hills,0.5285359801488835,1.0,0.0,0.044553877602161104,0.1,0.0,0.0,42.3285895,-84.09949335,0.0,0.04033525405971713,163.0,High,Low
4020,Bridgewater Twp,0.687344913151365,0.32975600106106046,0.19357314043530147,0.00017273783086595943,0.1,0.0,0.0,42.3287195,-84.09048521,0.0,0.015976951283394446,163.0,High,Low
4025,Chelsea,0.5905707196029778,0.19836434836951883,0.08341830260590179,0.1085265308163559,0.1,0.0,0.0,42.3248155,-84.11222546,0.0,0.035620743844945,163.0,Upper-Middle,Low
4030,Dexter,0.3796526054590571,0.33989901941830514,0.04179100412598119,0.17653734068654012,0.9500000000000001,0.30000000000000004,0.0,42.3057525,-84.06596608,0.0,0.17731796752226295,125.0,High,Low
4035,Dexter Twp,0.5955334987593054,0.46077898021302144,0.14554448605879575,0.012265395994412141,0.9500000000000001,0.30000000000000004,0.0,42.3187255,-84.03944903,0.0,0.14038763750654792,163.0,High,Low
4040,Freedom Twp,0.6625310173697273,0.3855381060071307,0.12334779717736659,0.0,1.0,0.30000000000000004,0.0,42.312376,-84.05028113,0.0,0.1754845468831849,151.0,High,Low
4045,Lima Twp,0.3200992555831266,0.38715217674749014,0.04555681571171265,0.005721197781999515,0.1,0.0,0.0,42.2954305,-84.08882061,0.0,0.02540597171293871,163.0,High,Low
4050,Lodi Twp,0.41439205955335,0.460473250936296,0.08133743067656819,0.011156427891927972,0.2,0.05,0.0,42.1367925,-84.02865652,0.0,0.03719224724986904,161.0,High,Low
4055,Lyndon Twp,0.5657568238213401,0.4078878153395169,0.06422727098611022,0.0028599280505019345,0.2,0.05,0.0,42.132139,-84.01278508,0.0,0.030906233630172864,151.0,High,Low
4075,Northfield Twp,0.3052109181141439,0.28168007229598196,0.11305328562692998,0.014631401516292022,0.0,0.0,0.0,44.1754185,-83.73416393,0.0,0.0007857517024620219,69.0,Upper-Middle,Low
4085,Salem Twp,0.37468982630272973,0.36796766463296754,0.132678601730763,0.012462350766473881,0.0,0.0,0.0,43.4406945,-82.73691702,0.0,0.0007857517024620219,151.0,High,Low
4090,Saline,0.47146401985111674,0.28360886435061755,0.12502621757151192,0.15476623995707503,0.0,0.0,0.0,43.457717,-82.73005228,0.0,0.0007857517024620219,151.0,Upper-Middle,Low
4095,Saline Twp,0.3523573200992557,0.2996326752660519,0.1141439979653618,0.002200829554985827,0.30000000000000004,0.0,0.0,43.856162,-85.82506817,0.0,0.03850183342063907,85.0,Upper-Middle,Low
4100,Scio Twp,0.4069478908188585,0.49315481141449247,0.1399849274460357,0.03793400879405335,0.05,0.0,0.0,43.1448085,-84.49496585,0.0,0.005238344683080146,57.0,High,Low
4105,Sharon Twp,0.5533498759305212,0.3513503792391837,0.1169082707057476,0.0010269127160781664,0.05,0.0,0.0,43.8416845,-85.8489995,0.0,0.011524358302776322,85.0,High,Low
4110,Superior Twp,0.2853598014888338,0.32390668063429834,0.27808726573506054,0.028867251805160667,0.0,0.0,0.0,43.8629195,-86.24768682,0.0,0.0,105.0,Upper-Middle,Low
4120,Webster Twp,0.511166253101737,0.5782689428511054,0.08557538068552015,0.011059239361764658,0.0,0.05,0.0,43.130732,-84.56070276,0.0,0.0107386066003143,57.0,High,Low
4125,York Twp,0.46898263027295284,0.5155494809346324,0.09234621871572093,0.01691405313865373,0.0,0.05,0.0,43.1214995,-84.56324176,0.0,0.012310110005238344,57.0,High,Low
4130,Ypsilanti,0.0,0.0744495749014248,0.6157384362217161,0.3397516199396636,0.0,0.05,0.0,43.1234205,-84.58504747,0.0,0.009167103195390255,57.0,Middle,Moderate
4135,Ypsilanti Twp,0.1761786600496279,0.1851955093764472,0.35761478622875165,0.1278996907231243,0.0,0.05,0.0,43.138194,-84.55039047,0.0,0.006024096385542167,57.0,Upper-Middle,Low
5010,Bedford Twp,0.456575682382134,0.26430745574793524,0.17895894509814586,0.05819034467793035,1.0,0.6000000000000001,0.0,41.962944,-83.37182844,0.0,0.20220010476689362,163.0,Upper-Middle,Low
5015,Berlin Twp(Monroe),0.29776674937965264,0.32910857435740654,0.17524381979461173,0.01714105676536739,0.35000000000000003,0.0,0.0,41.812267,-83.44175582,0.0,0.16238868517548452,163.0,High,Low
5020,Carleton,0.29280397022332505,0.16295370449467,0.25935005429519453,0.1975288233081794,1.0,0.65,0.0,41.9431205,-83.34650981,0.0,0.17365112624410683,163.0,Upper-Middle,Low
5025,Dundee,0.22828784119106715,0.1954689122781777,0.11998170767666348,0.07740711183350422,1.0,0.30000000000000004,0.0,41.9416335,-83.32999596,0.0,0.1519119958093242,163.0,Upper-Middle,Low
5030,Dundee Twp,0.39702233250620356,0.3812399120578728,0.017259182269201145,0.0019851436395371125,1.0,0.9500000000000001,1.0,42.417267,-83.06949844,0.0,0.3905185961236249,163.0,High,Low
5040,Estral Beach,0.446650124069479,0.1613171536604337,0.28135864675157063,0.06570618458798051,1.0,0.15000000000000002,0.10526315789473684,42.277877,-83.55984239,0.0,0.14562598218962805,161.0,Upper-Middle,Low
5045,Exeter Twp,0.5459057071960299,0.3329122062413733,0.18787127241483012,0.0042145599423387475,0.7000000000000001,0.75,0.42105263157894735,42.3966775,-83.00375687,0.0,0.4009952854897852,163.0,High,Low
5050,Frenchtown Twp,0.32754342431761796,0.16861419213286638,0.404374342007989,0.03499471282346568,0.8,0.9,0.42105263157894735,42.3941635,-83.00393448,0.0,0.40675746464117335,163.0,Upper-Middle,Low
5055,Ida Twp,0.3796526054590571,0.31391652691541644,0.06006658258029269,0.006966612224627714,0.9500000000000001,0.9500000000000001,0.9473684210526315,42.416058,-83.07251299,0.0,0.35306443163960183,163.0,Upper-Middle,Low
5060,LaSalle Twp,0.4267990074441689,0.2465751576978586,0.193521280882262,0.010149563181113746,0.8500000000000001,0.8,0.21052631578947367,42.3951235,-82.99165287,0.0,0.3033001571503405,163.0,Upper-Middle,Low
5065,London Twp,0.33746898263027314,0.21399700565149565,0.07553577327097664,0.003435117306647747,0.6000000000000001,0.8500000000000001,0.631578947368421,42.392775,-83.01054719,0.0,0.38606600314300676,163.0,Upper-Middle,Low
5070,Luna Pier,0.5409429280397023,0.1090194632652786,0.6557864434209453,0.058485548442187604,0.8,0.9500000000000001,0.42105263157894735,42.392903,-83.00180576,0.0,0.3766369827134625,163.0,Middle,Low
5075,Maybee,0.21836228287841186,0.11577697948466632,0.3142027807981866,0.023697142080188006,0.8,0.75,0.3684210526315789,42.399525,-83.00029961,0.0,0.30618124672603453,163.0,Middle,Low
5090,Monroe,0.2456575682382134,0.1436477998732123,0.4388347867303618,0.1472607593733333,0.05,0.0,0.0,43.5005485,-83.75334365,0.0,0.006024096385542167,17.0,Middle,Low
5095,Monroe Twp,0.4888337468982632,0.18091529950229074,0.33668323186005095,0.0575093889889424,0.0,0.0,0.0,43.7261865,-83.26967736,0.0,0.041644840230487166,63.0,Upper-Middle,Low
5105,Raisinville Twp,0.5583126550868488,0.267895278730684,0.10327056070873727,0.006390284089623363,0.0,0.0,0.0,43.511823,-83.70737661,0.0,0.0007857517024620219,17.0,Upper-Middle,Low
5110,South Rockwood,0.30024813895781644,0.22696352379967544,0.3368499664103358,0.04002819919100035,0.05,0.0,0.0,43.500437,-83.74239739,0.0,0.007595599790466211,17.0,Upper-Middle,Low
5115,Summerfield Twp,0.41439205955335,0.262239287111263,0.43658849833953456,0.0028398982491441137,0.05,0.0,0.0,43.51129,-83.72380072,0.0,0.006024096385542167,17.0,Upper-Middle,Low
6005,Algonac,0.5186104218362283,0.09961379198719535,0.42445639428706244,0.2179578032993633,0.9500000000000001,0.2,0.0,42.8057275,-82.49028552,0.0,0.1911995809324253,161.0,Middle,Low
6010,Berlin Twp(St.Clair),0.5260545905707198,0.2891254793880019,0.13406860367922713,0.0035082258353440563,0.9,0.8500000000000001,0.0,42.945652,-82.45523137,0.0,0.24620220010476684,161.0,Upper-Middle,Low
6020,Burtchville Twp,0.4491315136476427,0.17426568773351198,0.2678992297408194,0.016920962510892597,1.0,0.4,0.0,42.965223,-82.48607347,0.0,0.14981665793609217,147.0,Upper-Middle,Low
6025,Capac,0.25558312655086846,0.15024795543546193,0.3094336581881386,0.0731010677022568,0.9,0.7000000000000001,0.05263157894736842,42.966147,-82.45550282,0.0,0.28627553693033,147.0,Upper-Middle,Low
6030,Casco Twp,0.3126550868486353,0.23286230043296663,0.13313303309152483,0.0053014316414017265,0.8500000000000001,0.6000000000000001,0.0,42.9652815,-82.45297325,0.0,0.2815610267155579,147.0,Upper-Middle,Low
6035,China Twp,0.4267990074441689,0.3143526407366277,0.1018734823170976,0.004872634431921123,0.9,0.7000000000000001,0.05263157894736842,42.9651945,-82.45669455,0.0,0.2799895233106338,147.0,Upper-Middle,Low
6040,Clay Twp,0.6923076923076924,0.2550861212396423,0.18400605926153715,0.014888853276436593,0.9500000000000001,1.0,0.0,43.602456,-83.90905598,0.0,0.31665793609219484,17.0,Upper-Middle,Low
6045,Clyde Twp,0.5012406947890821,0.2637724295136657,0.09382378152349866,0.008675222209508528,1.0,0.75,0.0,42.6078475,-83.92772486,0.0,0.8881613410162389,93.0,Upper-Middle,Low
6050,Columbus Twp,0.3697270471464019,0.2877856657929404,0.07760564639980048,0.005560992109196225,1.0,0.8,0.0,42.605468,-83.92062291,0.0,0.5743844944997382,93.0,Upper-Middle,Low
6055,Cottrellville Twp,0.42928039702233256,0.25295500834011486,0.11823622184481954,0.009299022172194974,1.0,0.8500000000000001,0.0,42.602473,-83.91408166,0.0,0.40361445783132527,93.0,Upper-Middle,Low
7005,Brighton,0.4888337468982632,0.24363925743753911,0.14046744857984672,0.15282657208932862,0.9,0.9500000000000001,0.0,42.272538,-83.7433474,0.0,0.9528548978522786,161.0,Upper-Middle,Low
7010,Brighton Twp,0.39950372208436746,0.445078882649414,0.05742992636213468,0.039228014001012036,0.30000000000000004,0.0,0.0,42.763978,-82.48634364,0.0,0.0322158198009429,147.0,High,Low
