Tract Code (id),City,Median Age,Median Household Income,Percent People in Poverty,Population Density (Persons/Acre),# of Nearby Restaurants,# of Nearby Coffee Shops,# of Nearby Mosques,lat,lon,transit_stops,pedestrian_score,county_id,income_bracket,density_bracket,restaurant_to_coffee_ratio,coffee_shop_density,potential_demand_index,mosque_index,affordability_index,success_score
5030,Dundee Twp,0.39702233250620356,0.3812399120578728,0.017259182269201145,0.0019851436395371125,1.0,0.9500000000000001,1.0,42.417267,-83.06949844,0.0,0.390518596123625,163.0,High,Low,1.0526304709152936,0.0015943794817401447,2.2996350675784873e-07,1.0,2.2087826542721538e-05,0.45842282652655497
3035,Eastpointe,0.23325062034739452,0.13764111878931207,0.435365503395463,0.4977320943866017,0.30000000000000004,0.0,0.0,42.8110415,-82.93160622,0.0,0.03300157150340493,163.0,Middle,Moderate,300000.00000000006,0.0,1.0,0.0,3.1614999710780794e-07,0.3549502989555101
4018,Barton Hills,0.5285359801488835,1.0,0.0,0.044553877602161104,0.1,0.0,0.0,42.3285895,-84.09949335,0.0,0.040335254059717135,163.0,High,Low,100000.00000000001,0.0,0.1599463018230406,0.0,1.0,0.34603686356471774
4005,Ann Arbor,0.017369727047146455,0.24056847661395836,0.5530846122529602,0.3117447513242805,0.05,0.0,0.0,42.343569,-83.60184408,0.0,0.06574122577265586,163.0,Upper-Middle,Moderate,50000.00000000001,0.0,0.711252964151358,0.0,4.3495703248185656e-07,0.28767451189514437
2090,Hazel Park,0.23573200992555843,0.15869147869561506,0.3244926557197093,0.39806978800401294,0.0,0.0,0.0,46.0908725,-88.75578937,0.0,0.0,71.0,Upper-Middle,Moderate,0.0,0.0,0.7500366771893591,0.0,4.890433939105712e-07,0.28750926710601854
2110,Huntington Woods,0.4168734491315137,0.7222719282075722,0.030108363442253143,0.3191700314851636,0.15000000000000002,0.0,0.0,44.171861,-85.93919293,0.0,0.053431115767417506,101.0,High,Moderate,150000.00000000003,0.0,0.7020490397770914,0.0,2.398828290052761e-05,0.28353172496596557
2075,Ferndale,0.2133995037220845,0.28841960444026815,0.1842557990420916,0.37013214077979245,0.1,0.0,0.0,42.170528,-83.98208096,0.0,0.01204819277108434,161.0,Upper-Middle,Moderate,100000.00000000001,0.0,0.7200980013716096,0.0,1.5653132255617964e-06,0.2818320423212102
5065,London Twp,0.33746898263027314,0.21399700565149565,0.07553577327097664,0.003435117306647747,0.6000000000000001,0.8500000000000001,0.631578947368421,42.392775,-83.01054719,0.0,0.3860660031430069,163.0,Upper-Middle,Low,0.7058815224923265,0.0008245740993335043,3.148925481779377e-07,0.3650651002963356,2.8330175672690445e-06,0.2673476184770689
2065,Farmington,0.3126550868486353,0.2991336171819854,0.08911894090107622,0.32300680277011634,1.0,0.8500000000000001,0.10526315789473684,42.3297585,-83.04346308,0.0,1.0,163.0,Upper-Middle,Moderate,1.1764692041538773,8.771717924566075e-06,2.3841814592290417e-06,0.0006472529447810747,3.3565284509560643e-06,0.25019456606269685
3130,Warren,0.2704714640198511,0.1625715428987632,0.30378997016509707,0.30032725440637525,0.0,0.0,0.0,45.081241,-84.15568667,0.0,0.012572027239392353,119.0,Upper-Middle,Moderate,0.0,0.0,0.5895596648027075,0.0,5.351427753445492e-07,0.2492758273151408
2085,Groveland Twp,0.5781637717121589,0.3411668967129607,0.08564305975859653,0.00950330413718425,1.0,0.75,0.3157894736842105,42.3527105,-83.03564843,0.0,0.8441592456783658,163.0,High,Low,1.333331555557926,0.00026303872055389113,1.5960992229215348e-06,0.06599149664590623,3.983544190625737e-06,0.24639622770711517
7005,Brighton,0.4888337468982632,0.24363925743753911,0.14046744857984672,0.15282657208932862,0.9,0.9500000000000001,0.0,42.272538,-83.7433474,0.0,0.9528548978522788,161.0,Upper-Middle,Low,0.9473674238237644,2.0720519362930997e-05,1.6444451384776698e-06,0.0,1.7344767447833441e-06,0.24292692063253912
2245,Royal Oak Twp,0.1389578163771713,0.07195878049986738,0.6717216410901559,0.3016747373780203,0.0,0.0,0.0,43.6185905,-85.59214865,0.0,0.0,123.0,Middle,Moderate,0.0,0.0,0.5684105439801398,0.0,1.0712573329832032e-07,0.2421026574201816
2150,Madison Heights,0.3424317617866005,0.17599215894325576,0.26781915032403064,0.29933178852768083,0.0,0.0,0.0,43.6839885,-86.27471088,0.0,0.0007857517024620222,127.0,Upper-Middle,Moderate,0.0,0.0,0.5654764960723198,0.0,6.571281463710856e-07,0.2414871181990785
1065,Grosse Pointe,0.4094292803970224,0.5143580359591582,0.048875532561257956,0.3920418999861414,1.0,0.9,0.10526315789473684,42.3364615,-83.07103609,0.0,0.8944473546359353,163.0,High,Moderate,1.1111098765445815,7.652223774760488e-06,2.144803554044127e-06,0.0005332777395984288,1.0523619598311372e-05,0.2343289622197005
5055,Ida Twp,0.3796526054590571,0.31391652691541644,0.06006658258029269,0.006966612224627714,0.9500000000000001,0.9500000000000001,0.9473684210526315,42.416058,-83.07251299,0.0,0.3530644316396019,163.0,Upper-Middle,Low,0.9999989473695291,0.00045448376927088017,1.6555875891193542e-07,0.27005087296925995,5.226055609875799e-06,0.23393056486060287
6045,Clyde Twp,0.5012406947890821,0.2637724295136657,0.09382378152349866,0.008675222209508528,1.0,0.75,0.0,42.6078475,-83.92772486,0.0,0.8881613410162391,93.0,Upper-Middle,Low,1.333331555557926,0.00028814384182786093,1.7045628643572846e-06,0.0,2.811330068992521e-06,0.23319637517498296
2080,Franklin,0.5607940446650125,0.6698573413242574,0.04521575716879162,0.07086003243044417,1.0,0.8500000000000001,0.3684210526315789,42.353727,-83.0320485,0.0,0.8483499214248299,163.0,High,Low,1.1764692041538773,3.998436427121604e-05,1.4890906658877123e-06,0.010326368460324612,1.481436049966426e-05,0.23034973546016116
2275,Walled Lake,0.3399503722084368,0.17873023437745877,0.26453520941860986,0.22675626469784013,0.1,0.0,0.0,46.193998,-86.96789569,0.0,0.03719224724986905,3.0,Upper-Middle,Low,100000.00000000001,0.0,0.497327346233065,0.0,6.756361814145103e-07,0.2299108087729829
1075,Grosse Pointe Park,0.33498759305210923,0.42358791290312436,0.12096115564841227,0.3929680841158944,1.0,0.6000000000000001,0.10526315789473684,42.32527,-83.06140816,0.0,0.851231011000524,151.0,High,Moderate,1.6666638888935181,5.089458893438447e-06,3.358653702086981e-06,0.0005320208636783349,3.501821794035499e-06,0.22784528899107706
1040,Ecorse,0.23076923076923073,0.07868032856905212,0.5789380255317578,0.24874220430582794,0.1,0.0,0.0,42.1039985,-83.47037242,0.0,0.016762702985856474,163.0,Middle,Moderate,100000.00000000001,0.0,0.5002598833937938,0.0,1.359043441522774e-07,0.22757940347719577
5045,Exeter Twp,0.5459057071960299,0.3329122062413733,0.18787127241483012,0.0042145599423387475,0.7000000000000001,0.75,0.42105263157894735,42.3966775,-83.00375687,0.0,0.4009952854897853,163.0,High,Low,0.9333320888905482,0.000593041027572965,4.694767598440731e-07,0.19837720671976383,1.7720135172809786e-06,0.21960362250853305
2230,Rochester,0.3076923076923077,0.34771310004990585,0.0986023001184498,0.2521703917668782,0.0,0.0,0.0,43.634831,-85.61158868,0.0,0.0,123.0,High,Moderate,0.0,0.0,0.4751351858365958,0.0,3.5263840016734366e-06,0.2187845017359493
5015,Berlin Twp(Monroe),0.29776674937965264,0.32910857435740654,0.17524381979461173,0.01714105676536739,0.35000000000000003,0.0,0.0,41.812267,-83.44175582,0.0,0.16238868517548455,163.0,High,Low,350000.00000000006,0.0,0.3382667443966312,0.0,1.877993168318038e-06,0.20892536447411414
3125,Utica,0.4416873449131514,0.12562775662151165,0.1602640622266331,0.21673525388025588,0.0,0.0,0.0,43.298946,-84.51825808,0.0,0.0,57.0,Middle,Low,0.0,0.0,0.4083688214611692,0.0,7.838748812505352e-07,0.20209236214026854
1205,Wayne,0.3101736972704715,0.12087546477594092,0.3661776211978839,0.2155516968417608,0.0,0.0,0.0,45.072146,-84.36592414,0.0,0.0007857517024620222,119.0,Middle,Low,0.0,0.0,0.40761928251197554,0.0,3.300997321485339e-07,0.2020227494033096
2300,Wolverine Lake,0.4193548387096774,0.2735422783125543,0.15917886524297598,0.19914985319014955,0.1,0.0,0.0,46.1714855,-86.97059567,0.0,0.010476689366160292,3.0,Upper-Middle,Low,100000.00000000001,0.0,0.3949746923903893,0.0,1.718447731407567e-06,0.20031552019206766
2155,Milford,0.37468982630272973,0.33692715100778264,0.20150033751663954,0.1899174181542148,0.0,0.0,0.0,43.7443885,-85.56545223,0.0,0.003143006809848088,123.0,High,Low,0.0,0.0,0.36376105786216895,0.0,1.6720839432639494e-06,0.1914120499038081
2072,Farmington Hills,0.3573200992555833,0.33396877065358627,0.14450377273093826,0.18603394974574372,0.05,0.0,0.0,43.3847925,-84.53809526,0.0,0.005238344683080147,57.0,High,Low,50000.00000000001,0.0,0.3603918886706003,0.0,2.311126230241695e-06,0.19088418609535815
3110,Shelby Twp,0.4590570719602979,0.27876215611076394,0.1579290667056068,0.16797949663595127,0.05,0.0,0.0,43.5950015,-86.19329861,0.0,0.015453116815086433,127.0,Upper-Middle,Low,50000.00000000001,0.0,0.34562047735495305,0.0,1.765098704291672e-06,0.18872343988074208
6050,Columbus Twp,0.3697270471464019,0.2877856657929404,0.07760564639980048,0.005560992109196225,1.0,0.8,0.0,42.605468,-83.92062291,0.0,0.5743844944997383,93.0,Upper-Middle,Low,1.249998437501953,0.0004794445253271012,8.173951070506033e-07,0.0,3.7082605568391142e-06,0.18611067572331616
2295,Wixom,0.23076923076923073,0.18315431685242722,0.20248661402287124,0.13521507564108487,0.1,0.0,0.0,46.1931545,-86.97252072,0.0,0.027763226820324782,3.0,Upper-Middle,Low,100000.00000000001,0.0,0.3070807661521537,0.0,9.045210875552106e-07,0.18093485646530466
2025,Bingham Farms,1.0,0.8594949172507745,0.6617886123225514,0.10008754393170091,0.45,0.0,0.0,42.7968105,-83.55970558,0.0,0.054216867469879526,163.0,High,Low,450000.00000000006,0.0,0.29073754849892286,0.0,1.2987434393755082e-06,0.18081717699390054
2285,West Bloomfield Twp,0.4838709677419356,0.44771354965178334,0.13981084645300906,0.15558227712782427,0.05,0.0,0.0,46.33589,-86.46947235,0.0,0.006809848088004192,3.0,High,Low,50000.00000000001,0.0,0.3059762996282113,0.0,3.2022576127142442e-06,0.177516192571776
2172,Novi Twp,0.4838709677419356,0.5925438024629192,0.021333490450171806,0.16116423492195486,0.0,0.0,0.0,43.656986,-85.70978905,0.0,0.0007857517024620222,123.0,High,Low,0.0,0.0,0.3051432286128515,0.0,2.77739842836578e-05,0.1764092247054389
4090,Saline,0.47146401985111674,0.28360886435061755,0.12502621757151192,0.15476623995707503,0.0,0.0,0.0,43.457717,-82.73005228,0.0,0.0007857517024620222,151.0,Upper-Middle,Low,0.0,0.0,0.2930882208275261,0.0,2.268376997099864e-06,0.17339037163765025
4025,Chelsea,0.5905707196029778,0.19836434836951883,0.08341830260590179,0.1085265308163559,0.1,0.0,0.0,42.3248155,-84.11222546,0.0,0.035620743844945006,163.0,Upper-Middle,Low,100000.00000000001,0.0,0.27159962120251024,0.0,2.3779190447881406e-06,0.17324349246117826
5090,Monroe,0.2456575682382134,0.1436477998732123,0.4388347867303618,0.1472607593733333,0.05,0.0,0.0,43.5005485,-83.75334365,0.0,0.006024096385542169,17.0,Middle,Low,50000.00000000001,0.0,0.2888165167885437,0.0,3.273383899328047e-07,0.17310780912264523
2280,Waterford Twp,0.3870967741935486,0.21757583659669366,0.19702004080616353,0.14770142900621008,0.0,0.0,0.0,46.162468,-86.92034901,0.0,0.0007857517024620222,3.0,Upper-Middle,Low,0.0,0.0,0.27977680819246964,0.0,1.104327922065708e-06,0.17006228566907114
1015,Brownstown Twp,0.4168734491315137,0.2855016882550502,0.21672318305767843,0.10910923567827187,0.2,0.0,0.0,42.1184995,-83.47200231,0.0,0.02881089575694081,157.0,Upper-Middle,Low,200000.00000000003,0.0,0.2598665297444991,0.0,1.3173503954520268e-06,0.169288530269745
5050,Frenchtown Twp,0.32754342431761796,0.16861419213286638,0.404374342007989,0.03499471282346568,0.8,0.9,0.42105263157894735,42.3941635,-83.00393448,0.0,0.40675746464117346,163.0,Upper-Middle,Low,0.8888879012356653,8.572478620833831e-05,3.7631535616929024e-07,0.02389638440398175,4.169744655932437e-07,0.16817414001248188
2060,Commerce Twp,0.3722084367245658,0.38910794491477796,0.11665162629992333,0.10040982501643919,0.9,0.8500000000000001,0.631578947368421,42.365763,-83.04429118,0.0,0.4151388161341017,163.0,High,Low,1.0588222837384895,2.821740915752322e-05,5.943003137562611e-07,0.012492741783328279,3.335612384022542e-06,0.16601663891175322
2055,Clawson,0.3424317617866005,0.265480916648308,0.1217815321484728,0.38461414129342547,1.0,0.7000000000000001,0.21052631578947367,42.2959965,-83.53230113,0.0,0.4106862231534835,163.0,Upper-Middle,Moderate,1.4285693877580172,6.066670504667463e-06,1.592192438754567e-06,0.001087152995730468,2.179958914999758e-06,0.1619293067445839
5070,Luna Pier,0.5409429280397023,0.1090194632652786,0.6557864434209453,0.058485548442187604,0.8,0.9500000000000001,0.42105263157894735,42.392903,-83.00180576,0.0,0.37663698271346263,163.0,Middle,Low,0.8421043767322349,5.414350395111505e-05,3.1449152136044944e-07,0.014298518691824002,1.6624207181609574e-07,0.1607798005354662
6055,Cottrellville Twp,0.42928039702233256,0.25295500834011486,0.11823622184481954,0.009299022172194974,1.0,0.8500000000000001,0.0,42.602473,-83.91408166,0.0,0.4036144578313254,93.0,Upper-Middle,Low,1.1764692041538773,0.00030465877186877877,3.667903961759582e-07,0.0,2.1393855876629584e-06,0.1605122223722285
2050,Clarkston,0.7468982630272955,0.30095000876723665,0.045117469963075994,0.11888755221265297,1.0,0.30000000000000004,0.05263157894736842,42.3046485,-83.54233534,0.0,0.4009952854897853,163.0,Upper-Middle,Low,3.333322222259259,8.41123877268961e-06,2.716665271111901e-06,0.0008792593888950222,6.670217518757347e-06,0.16041424272608057
5060,LaSalle Twp,0.4267990074441689,0.2465751576978586,0.193521280882262,0.010149563181113746,0.8500000000000001,0.8,0.21052631578947367,42.3951235,-82.99165287,0.0,0.30330015715034053,163.0,Upper-Middle,Low,1.0624986718766603,0.0002627112032195708,1.8973664937940927e-07,0.04119333041918624,1.2741435072681564e-06,0.1578270538408488
1060,Grosse Ile Twp,0.5955334987593054,0.4376964198202492,0.09170316320348122,0.08682354948986934,0.9500000000000001,1.0,0.9473684210526315,42.3958685,-83.02481607,0.0,0.3300157150340492,57.0,High,Low,0.9499990500009502,3.839159952937348e-05,2.3689250620827623e-07,0.02167140255638812,4.772917657501003e-06,0.15600095266872893
5075,Maybee,0.21836228287841186,0.11577697948466632,0.3142027807981866,0.023697142080188006,0.8,0.75,0.3684210526315789,42.399525,-83.00029961,0.0,0.3061812467260346,163.0,Middle,Low,1.0666652444463407,0.00010549350204504158,2.8022578559078295e-07,0.03087740498304807,3.684773594721001e-07,0.1551800029055334
5095,Monroe Twp,0.4888337468982632,0.18091529950229074,0.33668323186005095,0.0575093889889424,0.0,0.0,0.0,43.7261865,-83.26967736,0.0,0.04164484023048717,63.0,Upper-Middle,Low,0.0,0.0,0.1868243883264953,0.0,5.373441414312849e-07,0.15295293058502518
2220,Auburn Hills,0.22828784119106715,0.22994888026652405,0.26482281295650945,0.1095766529332982,0.0,0.0,0.0,43.6413475,-85.66136529,0.0,0.0,123.0,Upper-Middle,Low,0.0,0.0,0.20646216542734153,0.0,8.683089247124739e-07,0.15161571501862034
1025,Dearborn,0.1389578163771713,0.16909526614183146,0.5855549711728582,0.32884637833242664,0.75,0.6000000000000001,1.0,42.4118245,-83.09530753,0.0,0.31351492928234675,157.0,Upper-Middle,Moderate,1.2499979166701387,6.081848698754811e-06,1.4687003751075234e-06,0.006039712554829466,2.887772893906908e-07,0.14883896990448264
6035,China Twp,0.4267990074441689,0.3143526407366277,0.1018734823170976,0.004872634431921123,0.9,0.7000000000000001,0.05263157894736842,42.9651945,-82.45669455,0.0,0.27998952331063387,147.0,Upper-Middle,Low,1.2857124489822156,0.00047876658906760957,2.1825133933705524e-07,0.02144885448946266,3.085685773186696e-06,0.1483858798845166
6040,Clay Twp,0.6923076923076924,0.2550861212396423,0.18400605926153715,0.014888853276436593,0.9500000000000001,1.0,0.0,43.602456,-83.90905598,0.0,0.3166579360921949,17.0,Upper-Middle,Low,0.9499990500009502,0.00022386609669340263,7.618584271912367e-08,0.0,1.3862844298656902e-06,0.14747660010750654
1045,Flat Rock(Wayne),0.2803970223325062,0.2054950341472626,0.2963409521336375,0.11552374240686533,1.0,0.45,0.10526315789473684,42.3218705,-83.05464879,0.0,0.30984808800419067,163.0,Upper-Middle,Low,2.2222172839615912,1.2984231505292312e-05,1.2325521181289972e-06,0.0018097227241062259,6.934388893226741e-07,0.14701927842051735
1055,Gibraltar,0.5310173697270472,0.27470674717537624,0.05038501913592471,0.09732348817720624,0.9500000000000001,0.5,0.05263157894736842,42.306662,-83.10107586,0.0,0.3027763226820325,163.0,Upper-Middle,Low,1.8999962000076,1.7124843889567005e-05,9.592122091999673e-07,0.0010740757821893524,5.452043084299016e-06,0.1457382888642419
1180,Sumpter Twp,0.3548387096774194,0.20382701118159874,0.2830901613331353,0.016450353826235286,0.7000000000000001,0.5,0.15789473684210525,42.292307,-83.12006645,0.0,0.25851231011000525,163.0,Upper-Middle,Low,1.3999972000056,0.00010130878493469645,4.876500177264518e-07,0.01906235988890027,7.200048571694533e-07,0.14448568951815327
6025,Capac,0.25558312655086846,0.15024795543546193,0.3094336581881386,0.0731010677022568,0.9,0.7000000000000001,0.05263157894736842,42.966147,-82.45550282,0.0,0.28627553693033003,147.0,Upper-Middle,Low,1.2857124489822156,3.19188417875805e-05,4.188210845831746e-07,0.001429971532281077,4.855563249288968e-07,0.1433673319315912
6030,Casco Twp,0.3126550868486353,0.23286230043296663,0.13313303309152483,0.0053014316414017265,0.8500000000000001,0.6000000000000001,0.0,42.9652815,-82.45297325,0.0,0.28156102671555794,147.0,Upper-Middle,Low,1.4166643055594905,0.00037718543778742403,3.523260848169893e-07,0.0,1.7490816962848428e-06,0.14219687336141543
1050,Garden City,0.3424317617866005,0.1655164351966334,0.2663147839229553,0.3436619448074312,0.8500000000000001,0.8,1.0,42.372107,-83.05508848,0.0,0.2624410686223153,163.0,Upper-Middle,Moderate,1.0624986718766603,7.759540872702793e-06,8.790020630265907e-07,0.005779336031267591,6.215044138897791e-07,0.14109952920003882
1145,Plymouth Twp,0.4913151364764269,0.37095302109981615,0.08898825374741848,0.12630924659032092,0.7000000000000001,0.55,0.21052631578947367,42.2935215,-83.12531227,0.0,0.2637506547930854,163.0,High,Low,1.2727249586818932,1.4514525803117387e-05,7.877523116284505e-07,0.003310384662747434,4.1685147978957765e-06,0.1405552928062442
1090,Hamtramck,0.0,0.056294651086462935,0.927620165749199,1.0,0.9500000000000001,0.5,0.05263157894736842,42.305196,-83.10162443,0.0,0.26898899947616556,151.0,Middle,Dense,1.8999962000076,1.6666650000016663e-06,4.233502058432099e-06,0.00010453377123133996,6.068711362466186e-08,0.14038061389923157
7010,Brighton Twp,0.39950372208436746,0.445078882649414,0.05742992636213468,0.039228014001012036,0.30000000000000004,0.0,0.0,42.763978,-82.48634364,0.0,0.03221581980094291,147.0,High,Low,300000.00000000006,0.0,0.1346128698233112,0.0,7.74981200621662e-06,0.13848714038837048
1200,Van Buren Twp,0.39454094292803965,0.21592579770613124,0.26992050540227164,0.060042884305242086,0.6000000000000001,0.5,0.15789473684210525,42.291358,-83.1218387,0.0,0.2456783656364589,163.0,Upper-Middle,Low,1.1999976000048,2.7757475818751437e-05,6.035595344448311e-07,0.005222873751822794,7.999577409896664e-07,0.13841615210486563
1135,Northville Twp,0.456575682382134,0.51359820878612,0.06074884693862539,0.14016466831741306,0.75,0.6000000000000001,0.2631578947368421,42.2915755,-83.12905231,0.0,0.24279727606076482,163.0,High,Low,1.2499979166701387,1.4268829336088829e-05,6.54107639745228e-07,0.003728940082830709,8.454312803536775e-06,0.13753870094050097
1150,Redford Twp,0.2754342431761788,0.17742189291382482,0.273628851262153,0.3232797935197236,0.8,0.55,0.15789473684210525,42.294439,-83.1139205,0.0,0.24751178627553694,163.0,Upper-Middle,Moderate,1.4545428099221636,5.671024601780063e-06,1.4069002111484506e-06,0.000970059569209145,6.484010867068906e-07,0.13741770011490323
1085,Grosse Pointe Woods,0.40446650124069483,0.457964472459637,0.09638883631124608,0.37451567502819466,0.9,0.4,0.05263157894736842,42.2987805,-83.10334573,0.0,0.24541644840230487,145.0,High,Moderate,2.2499943750140625,3.560144106355094e-06,2.371651012396405e-06,0.00027911674628971215,4.75116972894169e-06,0.13689738941652088
6010,Berlin Twp(St.Clair),0.5260545905707198,0.2891254793880019,0.13406860367922713,0.0035082258353440563,0.9,0.8500000000000001,0.0,42.945652,-82.45523137,0.0,0.2462022001047669,161.0,Upper-Middle,Low,1.0588222837384895,0.000807395552830114,5.020482592129211e-09,0.0,2.156532662539669e-06,0.13685002302208518
1105,Huron Twp,0.39205955334987597,0.2846339566314029,0.1690411320333666,0.032632458851404984,0.8,0.5,0.15789473684210525,42.297726,-83.11612888,0.0,0.22262964903090623,145.0,Upper-Middle,Low,1.5999968000064,5.1072326542391944e-05,4.1341117167257593e-07,0.009609818828071666,1.683804819589119e-06,0.13627272588416003
1095,Harper Woods,0.2506203473945411,0.15225317980927888,0.4751466724779736,0.4341790687315444,0.9,0.55,0.05263157894736842,42.3037565,-83.09738216,0.0,0.23991618648507074,161.0,Upper-Middle,Moderate,1.6363606611624342,4.222518409675991e-06,1.7607964080513194e-06,0.0002407615717379809,3.2043339077144884e-07,0.13605973847822123
1185,Taylor,0.2803970223325062,0.14367027996708914,0.3997746293984727,0.1967164152333875,0.8,0.5,0.15789473684210525,42.292521,-83.11428851,0.0,0.23598742797276062,163.0,Middle,Low,1.5999968000064,8.472390025505959e-06,1.082076037586935e-06,0.001594173179447653,3.593772841612792e-07,0.13587586130521206
2040,Bloomfield Twp,0.5285359801488835,0.5832145635040172,0.11345490016346314,0.12506904923266984,1.0,0.65,0.05263157894736842,42.62858,-83.35287844,0.0,0.23336825563122054,163.0,High,Low,1.5384591716012743,1.73236252800699e-05,4.905081969176587e-07,0.0008358026274591538,5.140451599817575e-06,0.13525539748776202
1190,Trenton,0.5285359801488835,0.22922052522491337,0.16615054858683675,0.18377807592442102,0.65,0.5,0.15789473684210525,42.2916165,-83.11626525,0.0,0.22812991094814042,163.0,Upper-Middle,Low,1.2999974000052,9.068859761554582e-06,1.0037097025108372e-06,0.001706405507362013,1.3795870527509078e-06,0.1347310282532897
2115,Independence Twp,0.3722084367245658,0.39157176320368314,0.11379711479543574,0.07356254927673352,0.0,0.0,0.0,44.595152,-85.07330861,0.0,0.0,79.0,High,Low,0.0,0.0,0.13860492228405033,0.0,3.4409336561293234e-06,0.13465191875774382
1115,Lincoln Park,0.19602977667493804,0.1330866517698578,0.532942543979407,0.5072768422510874,0.35000000000000003,0.35000000000000003,0.21052631578947367,42.295894,-83.12681422,0.0,0.21948664222105815,163.0,Middle,Moderate,0.9999971428653062,2.2998573355569535e-06,3.363928409603354e-06,0.0008242731462603095,2.497199811749671e-07,0.1331709392174019
3135,Washington Twp,0.4218362282878413,0.3299358418120754,0.1502572818502546,0.05267244179394707,0.0,0.0,0.0,45.08161,-84.16275019,0.0,0.012572027239392353,119.0,High,Low,0.0,0.0,0.12293211812532422,0.0,2.195791391657766e-06,0.13261927277551824
1160,Riverview,0.3523573200992557,0.19872852589032414,0.19071853320369492,0.20723932382192184,0.7000000000000001,0.5,0.05263157894736842,42.29442,-83.11156335,0.0,0.21529596647459404,163.0,Upper-Middle,Low,1.3999972000056,8.042192928142715e-06,1.0437572392757415e-06,0.0005044089578577159,1.0419935627572835e-06,0.13244538277727597
1175,Southgate,0.3076923076923077,0.16659098368394787,0.23018098252557406,0.3214568666741828,0.5,0.30000000000000004,0.21052631578947367,42.289667,-83.12479556,0.0,0.20796228391828186,163.0,Upper-Middle,Moderate,1.6666611111296294,3.110827587907691e-06,2.776559005301962e-06,0.0013007474584040923,7.237359842681822e-07,0.1315850946294529
5010,Bedford Twp,0.456575682382134,0.26430745574793524,0.17895894509814586,0.05819034467793035,1.0,0.6000000000000001,0.0,41.962944,-83.37182844,0.0,0.20220010476689368,163.0,Upper-Middle,Low,1.6666638888935181,3.4369372474022236e-05,2.6919594185436613e-07,0.0,1.476908453469757e-06,0.13032694145846282
1140,Plymouth,0.42431761786600497,0.37838494013551005,0.06494933573504003,0.3111564754876581,0.8500000000000001,0.7000000000000001,0.3157894736842105,42.2891765,-83.13392114,0.0,0.19774751178627556,163.0,High,Moderate,1.2142839795943148,7.498882453897154e-06,8.213023522486785e-07,0.0020157100632330616,5.825758032708295e-06,0.13026746037586048
1110,Inkster,0.18362282878411917,0.05417702624326161,0.8811267190878515,0.3062159787768966,0.75,0.55,0.05263157894736842,42.29738,-83.1124705,0.0,0.19984284965950763,163.0,Middle,Moderate,1.3636338843020284,5.987040106842221e-06,1.1851397130101367e-06,0.00034137191276148156,6.148600829326533e-08,0.13007854890087384
1165,Rockwood,0.3771712158808934,0.2599103493856191,0.24064890252466337,0.08616854267232808,0.75,0.5,0.05263157894736842,42.29505,-83.10834549,0.0,0.19303300157150344,71.0,Upper-Middle,Low,1.499997000006,1.9341714194821745e-05,5.036236573402072e-07,0.0012131186092354707,1.0800351326092134e-06,0.12931729356001753
6005,Algonac,0.5186104218362283,0.09961379198719535,0.42445639428706244,0.2179578032993633,0.9500000000000001,0.2,0.0,42.8057275,-82.49028552,0.0,0.19119958093242537,161.0,Middle,Low,4.749976250118749,3.0586819920781514e-06,3.3061131770809694e-06,0.0,2.3468501981102513e-07,0.12868050473696283
1120,Livonia,0.4491315136476427,0.3090338505253598,0.1053053240757911,0.1954877620493878,0.55,0.5,0.3157894736842105,42.2918205,-83.13188373,0.0,0.18072289156626503,145.0,Upper-Middle,Low,1.0999978000044,8.525639270484529e-06,8.691891934988607e-07,0.003208385218748339,2.9346181555339625e-06,0.1280709009575667
3005,Armada,0.3473945409429281,0.372104001906312,0.13643193688199523,0.18867153958440996,1.0,0.4,0.0,42.666965,-82.76867109,0.0,0.178103719224725,163.0,High,Low,2.499993750015625,7.066917826358163e-06,1.1791679137184826e-06,0.0,2.7273766174817116e-06,0.12671569145922804
1070,Grosse Pointe Farms,0.5955334987593054,0.5980019692562236,0.054088644912480895,0.27189482119929087,0.6000000000000001,0.35000000000000003,0.3684210526315789,42.412984,-83.02796902,0.0,0.17260345730749083,161.0,High,Moderate,1.714280816340525,4.290859129502905e-06,1.8443900666789446e-06,0.002691240811014299,1.105575697943319e-05,0.12670013400242752
4030,Dexter,0.3796526054590571,0.33989901941830514,0.04179100412598119,0.17653734068654012,0.9500000000000001,0.30000000000000004,0.0,42.3057525,-84.06596608,0.0,0.17731796752226298,125.0,High,Low,3.1666561111462963,5.6644918951379e-06,1.6739133360192292e-06,0.0,8.133111261993708e-06,0.12659917377973634
1155,River Rouge,0.23821339950372222,0.022417149614016793,0.9719618778677973,0.18740772678704454,0.75,0.5,0.05263157894736842,42.296981,-83.10973923,0.0,0.17574646411733894,163.0,Low,Low,1.499997000006,8.89321802266191e-06,8.199877028111513e-07,0.0005577855287597929,2.3063791966204997e-08,0.1265286255641106
5020,Carleton,0.29280397022332505,0.16295370449467,0.25935005429519453,0.1975288233081794,1.0,0.65,0.0,41.9431205,-83.34650981,0.0,0.17365112624410686,163.0,Upper-Middle,Low,1.5384591716012743,1.0968807800158388e-05,5.274458374033775e-07,0.0,6.283132526201162e-07,0.1260468295799459
2020,Beverly Hills,0.4590570719602979,0.6648622644648164,0.044040210966664675,0.19380471556360698,0.7000000000000001,0.6000000000000001,0.0,42.5744455,-83.39531244,0.0,0.17077003666841278,163.0,High,Low,1.166664722225463,1.0319613093885255e-05,5.963662753907223e-07,0.0,1.5096366559222423e-05,0.12561764190383323
2045,Brandon Twp,0.39702233250620356,0.31107953906815516,0.11806740829787503,0.02735829786852166,0.8500000000000001,0.65,0.05263157894736842,42.798431,-83.25950671,0.0,0.16186485070717652,163.0,Upper-Middle,Low,1.3076902958610834,7.919306544630052e-05,0.0,0.0038207806453024154,2.6347398389866653e-06,0.12541856944109037
4015,Augusta Twp,0.39950372208436746,0.3591239957018061,0.07355038055187037,0.011557895485411734,0.25,0.0,0.0,42.347853,-83.98015962,0.0,0.03169198533263489,163.0,High,Low,250000.0,0.0,0.0814902392826826,0.0,4.8826275320358185e-06,0.1251273341460723
4095,Saline Twp,0.3523573200992557,0.2996326752660519,0.1141439979653618,0.002200829554985827,0.30000000000000004,0.0,0.0,43.856162,-85.82506817,0.0,0.03850183342063908,85.0,Upper-Middle,Low,300000.00000000006,0.0,0.07669080897836532,0.0,2.6250180087346253e-06,0.12494850226128895
3120,St.Clair Shores,0.41439205955335,0.20281990297591485,0.17904717359275038,0.3734245915150337,0.75,0.1,0.0,43.2935605,-84.58253381,0.0,0.16291251964379255,57.0,Upper-Middle,Moderate,7.499925000749992,8.926365543961752e-07,9.55697461485318e-06,0.0,1.1327672263065572e-06,0.12443940448001242
1170,Romulus,0.2109181141439207,0.20076072637679337,0.2595459365259198,0.04954216217393505,0.45,0.2,0.15789473684210525,42.287637,-83.1269893,0.0,0.1458878994237821,163.0,Upper-Middle,Low,2.2499887500562497,1.3456280088181448e-05,1.292613893262294e-06,0.006329866999493246,7.73504511607843e-07,0.1237812772397821
3015,Bruce Twp,0.4218362282878413,0.40552740548244537,0.0686166932062331,0.013374900943124969,1.0,0.25,0.0,42.7783355,-83.02650117,0.0,0.15845992666317443,163.0,High,Low,3.9999840000640003,6.230109933354847e-05,7.465603097585436e-07,0.0,5.9099539278246675e-06,0.1237641275204058
5110,South Rockwood,0.30024813895781644,0.22696352379967544,0.3368499664103358,0.04002819919100035,0.05,0.0,0.0,43.500437,-83.74239739,0.0,0.007595599790466213,17.0,Upper-Middle,Low,50000.00000000001,0.0,0.08973151140025043,0.0,6.737802364598214e-07,0.12357235257467984
1125,Melvindale,0.11414392059553358,0.06192816261200708,0.833874136737137,0.3429826454324687,0.4,0.30000000000000004,0.3157894736842105,42.2921595,-83.13537019,0.0,0.14955474070193817,163.0,Middle,Moderate,1.3333288889037036,2.915590913202576e-06,2.5449195213226124e-06,0.001828668109815631,7.426551036684613e-08,0.1229821710621265
5040,Estral Beach,0.446650124069479,0.1613171536604337,0.28135864675157063,0.06570618458798051,1.0,0.15000000000000002,0.10526315789473684,42.277877,-83.55984239,0.0,0.14562598218962808,161.0,Upper-Middle,Low,6.666622222518516,7.609517941382965e-06,2.1060662172126635e-06,0.0031818096124676463,5.733485790265807e-07,0.12279832044666047
5025,Dundee,0.22828784119106715,0.1954689122781777,0.11998170767666348,0.07740711183350422,1.0,0.30000000000000004,0.0,41.9416335,-83.32999596,0.0,0.15191199580932424,163.0,Upper-Middle,Low,3.333322222259259,1.2918542725223458e-05,8.917516997814419e-07,0.0,1.6291423661227825e-06,0.12278605628352428
6020,Burtchville Twp,0.4491315136476427,0.17426568773351198,0.2678992297408194,0.016920962510892597,1.0,0.4,0.0,42.965223,-82.48607347,0.0,0.1498166579360922,147.0,Upper-Middle,Low,2.499993750015625,7.879306743972941e-05,2.3690034691524186e-07,0.0,6.50487264987065e-07,0.12246480870620957
3060,Macomb Twp,0.33746898263027314,0.4080496720154304,0.08734098884866937,0.18768127963657513,0.7000000000000001,0.2,0.0,43.179732,-84.11870404,0.0,0.142221058145626,145.0,High,Low,3.4999825000874996,3.5521023506192955e-06,2.5594609601415304e-06,0.0,4.67186146542216e-06,0.12133437774914196
4100,Scio Twp,0.4069478908188585,0.49315481141449247,0.1399849274460357,0.03793400879405335,0.05,0.0,0.0,43.1448085,-84.49496585,0.0,0.005238344683080147,57.0,High,Low,50000.00000000001,0.0,0.08134416340994223,0.0,3.5228884818054494e-06,0.12112249713264395
4035,Dexter Twp,0.5955334987593054,0.46077898021302144,0.14554448605879575,0.012265395994412141,0.9500000000000001,0.30000000000000004,0.0,42.3187255,-84.03944903,0.0,0.14038763750654795,163.0,High,Low,3.1666561111462963,8.152353800215988e-05,4.10243016184146e-07,0.0,3.1658761304825446e-06,0.12105072900816212
2205,Oxford Twp,0.29776674937965264,0.38664862264464817,0.12751922420229375,0.03935148588128961,0.0,0.0,0.0,43.6739665,-85.64432142,0.0,0.003143006809848088,123.0,High,Low,0.0,0.0,0.08006694811086773,0.0,3.0320572682752024e-06,0.12048879446064781
4010,Ann Arbor Twp,0.4962779156327545,0.5052221258075974,0.13822534763683691,0.017383965584259854,0.9500000000000001,0.15000000000000002,0.0,42.3341235,-84.05280134,0.0,0.13645887899423784,163.0,High,Low,6.33329111139259,2.8760482589203058e-05,1.3839341427214141e-06,0.0,3.655034907924871e-06,0.12046703279139404
3040,Fraser,0.36228287841191087,0.15077848565095608,0.24382960786868274,0.26226226425862453,1.0,0.2,0.0,42.8151395,-82.96764171,0.0,0.13436354112100576,163.0,Upper-Middle,Moderate,4.999975000124999,2.5419750209821593e-06,3.188054686790802e-06,0.0,6.183739070697771e-07,0.12015519765910188
2105,Holly Twp,0.3722084367245658,0.3017817722406809,0.2798379871039469,0.011163012394457682,0.45,0.1,0.0,44.9778105,-85.71448764,0.0,0.13069669984284965,89.0,Upper-Middle,Low,4.4999550004499955,2.9857843359150597e-05,2.124363949431175e-06,0.0,1.0784121803892297e-06,0.11960226596551497
2035,Bloomfield Hills,0.5459057071960299,0.7766242991830734,0.0775869059753658,0.0633211307788002,0.8500000000000001,0.35000000000000003,0.0,42.8323815,-83.62597253,0.0,0.12807752750130957,163.0,High,Low,2.4285644898157437,1.8424311568764493e-05,4.818608941629843e-07,0.0,1.0009605097857029e-05,0.11921190908028267
3050,Harrison Twp,0.4491315136476427,0.22570463854257056,0.2873150556357915,0.11880395263283156,1.0,0.15000000000000002,0.0,42.827462,-82.9693135,0.0,0.1244106862231535,161.0,Upper-Middle,Low,6.666622222518516,4.208578758035932e-06,2.5065467729257277e-06,0.0,7.855622201241653e-07,0.11866196582473448
4045,Lima Twp,0.3200992555831266,0.38715217674749014,0.04555681571171265,0.005721197781999515,0.1,0.0,0.0,42.2954305,-84.08882061,0.0,0.025405971712938718,163.0,High,Low,100000.00000000001,0.0,0.05864880533634172,0.0,8.498040801546934e-06,0.11847479669918655
3010,Armada Twp,0.446650124069479,0.37193764921162314,0.17958399163932107,0.0044113754086467834,0.25,0.0,0.0,42.842363,-82.9458392,0.0,0.026191723415400738,157.0,High,Low,250000.0,0.0,0.05766135910477581,0.0,2.07109539509083e-06,0.11834451250758309
1010,Belleville,0.33746898263027314,0.14543271932703594,0.14031151892129223,0.24882017844408327,0.45,0.45,0.0,42.1859085,-83.37746188,0.0,0.11393399685699321,163.0,Middle,Moderate,0.9999977777827161,6.028425752903062e-06,9.703676728323946e-07,0.0,1.0364914010888497e-06,0.11708994657617212
2260,Springfield Twp,0.3846153846153847,0.3599647512128011,0.1894574609571668,0.02750604173628938,0.0,0.0,0.0,43.6886685,-85.67531416,0.0,0.002357255107386066,123.0,High,Low,0.0,0.0,0.05626743512047459,0.0,1.899966617453853e-06,0.11442082703955006
4110,Superior Twp,0.2853598014888338,0.32390668063429834,0.27808726573506054,0.028867251805160667,0.0,0.0,0.0,43.8629195,-86.24768682,0.0,0.0,105.0,Upper-Middle,Low,0.0,0.0,0.054390701743886834,0.0,1.1647621296717704e-06,0.11359790838839764
2140,Leonard,0.3052109181141439,0.2862525233905377,0.07861307123568899,0.024458833058528043,0.0,0.0,0.0,43.689122,-85.68157824,0.0,0.002357255107386066,123.0,Upper-Middle,Low,0.0,0.0,0.05052592945572076,0.0,3.641237743970008e-06,0.1129857988775869
1100,Highland Park,0.4491315136476427,0.0,1.0,0.22193365373077573,0.15000000000000002,0.25,0.0,42.3017565,-83.10409977,0.0,0.08276584599266633,161.0,Low,Low,0.5999976000096001,3.7548590061299408e-06,1.7479229296704802e-06,0.0,0.0,0.11241493839373175
4020,Bridgewater Twp,0.687344913151365,0.32975600106106046,0.19357314043530147,0.00017273783086595943,0.1,0.0,0.0,42.3287195,-84.09048521,0.0,0.01597695128339445,163.0,High,Low,100000.00000000001,0.0,0.030428457620419302,0.0,1.7035126712665178e-06,0.11000399780014825
3085,Ray Twp,0.5334987593052111,0.3809431748186981,0.17159595629209715,0.004924843331236304,0.1,0.0,0.0,43.177665,-82.86984888,0.0,0.010476689366160292,151.0,High,Low,100000.00000000001,0.0,0.02901879233005223,0.0,2.21998794763146e-06,0.10882664548502663
3055,Lenox Twp,0.29776674937965264,0.20599858825010453,0.17726675472612516,0.009676962255176676,0.45,0.05,0.0,42.809636,-82.88259743,0.0,0.05866946045049765,145.0,Upper-Middle,Low,8.999820003599927,1.7221256114893172e-05,2.0269858252946078e-06,0.0,1.162075914868826e-06,0.10879943610360246
3090,Richmond(Macomb),0.2803970223325062,0.15346260885985463,0.563434782986695,0.15827044016999747,0.35000000000000003,0.1,0.0,42.1060615,-84.00457652,0.0,0.055002619172341546,161.0,Upper-Middle,Low,3.4999650003499965,2.1060864359059594e-06,3.469910251443631e-06,0.0,2.7236929831891504e-07,0.10825110421863017
4105,Sharon Twp,0.5533498759305212,0.3513503792391837,0.1169082707057476,0.0010269127160781664,0.05,0.0,0.0,43.8416845,-85.8489995,0.0,0.011524358302776323,85.0,High,Low,50000.00000000001,0.0,0.023648371297580364,0.0,3.0053252160259207e-06,0.10764134763485475
3025,Chesterfield Twp,0.36724565756823824,0.28682801379378564,0.19034282635280794,0.12053673320413395,0.30000000000000004,0.05,0.0,42.816605,-82.94736705,0.0,0.050026191723415415,163.0,Upper-Middle,Low,5.999880002399952,1.3826928899053713e-06,5.878805318481268e-06,0.0,1.5068942307702765e-06,0.1075055615693991
4075,Northfield Twp,0.3052109181141439,0.28168007229598196,0.11305328562692998,0.014631401516292022,0.0,0.0,0.0,44.1754185,-83.73416393,0.0,0.0007857517024620222,69.0,Upper-Middle,Low,0.0,0.0,0.029048224286096047,0.0,2.49154705400115e-06,0.10738041713630413
4085,Salem Twp,0.37468982630272973,0.36796766463296754,0.132678601730763,0.012462350766473881,0.0,0.0,0.0,43.4406945,-82.73691702,0.0,0.0007857517024620222,151.0,High,Low,0.0,0.0,0.024961330842234963,0.0,2.7733552093384884e-06,0.10635875013696992
4050,Lodi Twp,0.41439205955335,0.460473250936296,0.08133743067656819,0.011156427891927972,0.2,0.05,0.0,42.1367925,-84.02865652,0.0,0.03719224724986905,161.0,High,Low,3.999920001599968,1.493773191106567e-05,1.2734116742326843e-06,0.0,5.661201563714803e-06,0.10557879390752055
2125,Lake Angelus,0.9528535980148886,0.830801325426335,0.19353664876666088,0.009898373226669765,0.25,0.05,0.0,43.723477,-85.81347917,0.0,0.035358826610791,123.0,High,Low,4.9999000019999595,1.6836082734778832e-05,1.1569157603527514e-06,0.0,4.292711680237433e-06,0.10530328815462131
2235,Rose Twp,0.543424317617866,0.34569438761976273,0.15162095884101578,0.010036333871057103,0.0,0.0,0.0,43.6177715,-85.64832106,0.0,0.0007857517024620222,123.0,High,Low,0.0,0.0,0.020390265575363574,0.0,2.279975738753269e-06,0.10521588514435795
5115,Summerfield Twp,0.41439205955335,0.262239287111263,0.43658849833953456,0.0028398982491441137,0.05,0.0,0.0,43.51129,-83.72380072,0.0,0.006024096385542169,17.0,Upper-Middle,Low,50000.00000000001,0.0,0.01670085949711912,0.0,6.0065413416637e-07,0.10507894946293794
2010,Rochester Hills,0.3449131513647644,0.41125982942104766,0.11095948808200068,0.17127875519750413,0.25,0.05,0.0,42.67297,-83.65154406,0.0,0.03221581980094291,157.0,High,Low,4.9999000019999595,9.730669364542347e-07,7.119767090099585e-06,0.0,3.706362837167077e-06,0.10483479687778775
4055,Lyndon Twp,0.5657568238213401,0.4078878153395169,0.06422727098611022,0.0028599280505019345,0.2,0.05,0.0,42.132139,-84.01278508,0.0,0.03090623363017287,151.0,High,Low,3.999920001599968,5.825615455006841e-05,7.238995270914683e-07,0.0,6.3505962261964865e-06,0.10463156052319794
5105,Raisinville Twp,0.5583126550868488,0.267895278730684,0.10327056070873727,0.006390284089623363,0.0,0.0,0.0,43.511823,-83.70737661,0.0,0.0007857517024620222,17.0,Upper-Middle,Low,0.0,0.0,0.013520432331958815,0.0,2.5940856988328518e-06,0.10349848965549878
2180,Oak Park,0.2704714640198511,0.17219751909683978,0.3386187924774056,0.4308500300281713,0.15000000000000002,0.05,0.0,43.7063135,-85.8113649,0.0,0.021739130434782608,123.0,Upper-Middle,Moderate,2.999940001199976,3.8683130606829256e-07,1.6506386266881647e-05,0.0,5.08527625739212e-07,0.10326505918417865
1215,Woodhaven,0.4590570719602979,0.25046870995733284,0.28725013546737327,0.14671837983321884,0.15000000000000002,0.05,0.0,43.6864455,-85.83781969,0.0,0.02095337873232059,123.0,Upper-Middle,Low,2.999940001199976,1.135955364970344e-06,5.769857636755058e-06,0.0,8.719502868102039e-07,0.10314451006877814
2290,White Lake Twp,0.43672456575682383,0.29458814220008184,0.23425881788269567,0.060453670463781126,0.1,0.05,0.0,46.352759,-86.58859108,0.0,0.020429544264012577,3.0,Upper-Middle,Low,1.999960000799984,2.7568865298259786e-06,2.4994091507182027e-06,0.0,1.2575274106445143e-06,0.1030650323087187
2195,Ortonville,0.3846153846153847,0.3330875509736129,0.29632087398407936,0.10069607723922311,0.1,0.05,0.0,43.6585275,-85.80977319,0.0,0.019643792561550553,123.0,High,Low,1.999960000799984,1.6551291381647702e-06,3.986252369205108e-06,0.0,1.1240734492368555e-06,0.10294762474910092
2175,Oakland Twp,0.40198511166253115,0.6392574375390592,0.04849722389636953,0.03845808423413815,0.1,0.05,0.0,43.6879595,-85.76636484,0.0,0.01807228915662651,123.0,High,Low,1.999960000799984,4.333609860598948e-06,1.5817222123328667e-06,0.0,1.3181048421587918e-05,0.10271344165274532
2190,Orion Twp,0.3722084367245658,0.3951416021113304,0.08948545549400541,0.07461460540177049,0.1,0.05,0.0,43.6724385,-85.77676792,0.0,0.016500785751702465,123.0,High,Low,1.999960000799984,2.2336703665304838e-06,2.884987758452266e-06,0.0,4.4156582125191045e-06,0.10247649887430084
4125,York Twp,0.46898263027295284,0.5155494809346324,0.09234621871572093,0.01691405313865373,0.0,0.05,0.0,43.1214995,-84.56324176,0.0,0.012310110005238347,57.0,High,Low,0.0,9.853156552361363e-06,5.527436166296745e-07,0.0,5.582728836931032e-06,0.10184678591680207
4120,Webster Twp,0.511166253101737,0.5782689428511054,0.08557538068552015,0.011059239361764658,0.0,0.05,0.0,43.130732,-84.56070276,0.0,0.010738606600314301,57.0,High,Low,0.0,1.506899274195048e-05,2.7289806662832506e-07,0.0,6.757342834772991e-06,0.10161070378385657
4130,Ypsilanti,0.0,0.0744495749014248,0.6157384362217161,0.3397516199396636,0.0,0.05,0.0,43.1234205,-84.58504747,0.0,0.009167103195390257,57.0,Middle,Moderate,0.0,4.905529991093662e-07,1.2599778207646624e-05,0.0,1.209108439736462e-07,0.10137819055072934
4135,Ypsilanti Twp,0.1761786600496279,0.1851955093764472,0.35761478622875165,0.1278996907231243,0.0,0.05,0.0,43.138194,-84.55039047,0.0,0.006024096385542169,57.0,Upper-Middle,Low,0.0,1.3030943439348722e-06,4.4981344659609065e-06,0.0,5.178616730805767e-07,0.10090471225434804
4040,Freedom Twp,0.6625310173697273,0.3855381060071307,0.12334779717736659,0.0,1.0,0.30000000000000004,0.0,42.312376,-84.05028113,0.0,0.17548454688318493,151.0,High,Low,3.333322222259259,0.9999999999999999,5.536385412095417e-07,0.0,3.1255927486082816e-06,0.026323445560662774
